facility_type,facility_name,longitude,latitude
hawker,Adam Road Food Centre,103.812833881556,1.32794886466998
hawker,Amoy Street Food Centre,103.847820429405,1.28108464345095
hawker,Bedok Food Centre,103.92918919889,1.32475054237912
hawker,Beo Crescent Market,103.827353892228,1.28883089150258
hawker,Berseh Food Centre,103.856888783497,1.30734410918998
hawker,Bukit Timah Market,103.776007306701,1.33945242854685
hawker,Chomp Chomp Food Centre,103.86652701738,1.36423252476886
hawker,Commonwealth Crescent Market,103.800432545798,1.30707478767354
hawker,Dunman Food Centre,103.901825408227,1.30941788760759
hawker,East Coast Lagoon Food Village,103.935137935777,1.30690573552745
hawker,Geylang Serai Market,103.89833997582,1.3171804402937
hawker,Golden Mile Food Centre,103.863877368653,1.30314151533241
hawker,Holland Village Market & Food Centre,103.795151188387,1.31139686696526
hawker,Kallang Estate Market,103.884017699319,1.30734398370473
hawker,Market Street Food Centre,103.820484203624,1.44646879141296
hawker,Maxwell Food Centre,103.844747227479,1.28033142727315
hawker,Newton Food Centre,103.839562766706,1.31189240495009
hawker,North Bridge Road Market & Food Centre,103.863909336656,1.30563433652207
hawker,Pasir Panjang Food Centre,103.791619964293,1.27569879325348
hawker,Serangoon Garden Market,103.866162163042,1.36273680777483
hawker,Sembawang Hill Food Centre,103.829018145089,1.37231949296183
hawker,Taman Jurong Market & Food Centre,103.721619258973,1.33468266452814
hawker,Tanglin Halt Market,103.797737980247,1.30054407507427
hawker,Tiong Bahru Market,103.832421566287,1.28468599168094
hawker,Zion Riverside Food Centre,103.830973358549,1.29231114800655
hawker,ABC Brickworks Market & Food Centre,103.808131274161,1.28688297261475
hawker,Albert Centre Market & Food Centre,103.854115779087,1.30110201573423
hawker,Alexandra Village Food Centre,103.804492637648,1.28630594274136
hawker,Blk 1 Jalan Kukoh,103.839934168065,1.2882310152805
hawker,Blk 105 Hougang Ave 1,103.890130407955,1.35408273910145
hawker,Blk 11 Telok Blangah Crescent,103.818651524334,1.27736813225761
hawker,Blk 112 Jalan Bukit Merah,103.82601329621,1.28000480135122
hawker,Blk 115 Bukit Merah View,103.821823256087,1.28550445567433
hawker,Blk 117 Aljunied Ave 2,103.88702414,1.32064636781982
hawker,Blk 127 Toa Payoh Lorong 1,103.844733922883,1.33804625287728
hawker,Blk 137 Tampines Street 11,103.944629422828,1.34537347373749
hawker,Blk 159 Mei Chin Road,103.802903871889,1.29323624443735
hawker,Blk 16 Bedok South Road,103.935539171613,1.32055221938711
hawker,Blk 163 Bukit Merah Central,103.816939544137,1.28388120820457
hawker,Blk 17 Upper Boon Keng Road,103.87162041674,1.31502841514731
hawker,Blk 20 Ghim Moh Road,103.78823030662,1.31099663218896
hawker,Blk 208B New Upper Changi Road,103.930570304559,1.32478236985627
hawker,Blk 210 Toa Payoh Lorong 8,103.85487256444,1.34021600857625
hawker,Blk 216 Bedok North Street 1,103.933217970746,1.32706274205746
hawker,Blk 22 Toa Payoh Lorong 7,103.857003709119,1.33538261333779
hawker,Blk 226D Ang Mo Kio Ave 1,103.839152274224,1.36680096218071
hawker,Blk 226H Ang Mo Kio Street 22,103.840157741978,1.36717874094695
hawker,Blk 254 Jurong East Street 24,103.73773841183,1.34348818520494
hawker,Blk 29 Bendemeer Road,103.863020922593,1.31921667890113
hawker,Blk 320 Shunfu Road,103.837031862103,1.35200745401591
hawker,Blk 341 Ang Mo Kio Ave 1,103.84806729788,1.36384516921846
hawker,Blk 347 Jurong East Ave 1,103.731703838354,1.34541698312776
hawker,Blk 353 Clementi Ave 2,103.770919561136,1.31437917978956
hawker,Blk 36 Telok Blangah Rise,103.822028389533,1.27260703348585
hawker,Blk 37A Teban Gardens Road,103.742748119105,1.32083109341424
hawker,Blk 409 Ang Mo Kio Ave 10,103.855288297631,1.36265410749321
hawker,Blk 44 Holland Drive,103.792773769341,1.30811780015992
hawker,Blk 448 Clementi Ave 3,103.764517192874,1.31331969319644
hawker,Blk 453A Ang Mo Kio Ave 10,103.856351467175,1.36824053741879
hawker,Blk 49 Sims Place,103.879309854774,1.31703502375324
hawker,Blk 4A Eunos Crescent,103.904256478426,1.32033126010096
hawker,Blk 4A Jalan Batu,103.883909473726,1.30236034827101
hawker,Blk 4A Woodlands Centre Road,103.769799867546,1.43903831450662
hawker,Blk 502 West  Coast Drive,103.759080462665,1.31193388099262
hawker,Blk 503 West Coast Drive,103.759751405542,1.31180308926424
hawker,Blk 505 Jurong West Street 52,103.718443677825,1.34965729130746
hawker,Blk 50A Marine Terrace,103.915737035334,1.30572973591916
hawker,Blk 51 Old Airport Road,103.88580870609,1.3082518471287
hawker,Blk 511 Bedok North Street 3,103.930581522776,1.33321993297265
hawker,Blk 527 Ang Mo Kio Ave 10,103.854457955288,1.37277209302753
hawker,Blk 538 Bedok North Street 3,103.924621314971,1.3320672771228
hawker,Blk 58 New Upper Changi Road,103.941125277547,1.32420087334002
hawker,Blk 6 Tanjong Pagar Plaza,103.843167023188,1.27661464758769
hawker,Blk 628 Ang Mo Kio Ave 4,103.840628087484,1.38098761665454
hawker,Blk 630 Bedok Reservoir Road,103.914190840298,1.33277279217212
hawker,Blk 69 Geylang Bahru,103.870005014547,1.32146311046779
hawker,Blk 7 Empress Road,103.805636419935,1.31624574394049
hawker,Blk 724 Ang Mo Kio Ave 6,103.846510310202,1.37217258545171
hawker,Blk 726 Clementi West Street 2,103.764250748436,1.30381073184127
hawker,Blk 74 Toa Payoh Lorong 4,103.852003509176,1.3345507487214
hawker,Blk 75 Toa Payoh Lorong 5,103.852956988062,1.336020767662
hawker,Blk 79 Redhill Lane,103.818349792057,1.2878470282227
hawker,Blk 79 Telok Blangah Drive,103.807621587927,1.27336490550026
hawker,Blk 80 Circuit Road,103.887102669236,1.32783414615937
hawker,Blk 82 Telok Blangah Drive,103.807900337544,1.27389076775628
hawker,Blk 84 Marine Parade Central,103.906288669909,1.30228520968842
hawker,Blk 85 Bedok North Street 4,103.938794058948,1.33203125668687
hawker,Blk 85 Redhill Lane,103.818311195307,1.28730751501552
hawker,Blk 89 Circuit Road,103.885438842474,1.32357971400582
hawker,Blk 90 Whampoa Drive,103.854996183556,1.32306493801159
hawker,Blk 93 Toa Payoh Lorong 4,103.849513448853,1.33847469611073
hawker,Blks 13/14 Haig Road,103.895609544204,1.31514204972284
hawker,Blks 160/162 Ang Mo Kio Ave 4,103.840329743826,1.37858940772641
hawker,Blks 1A/ 2A/ 3A Commonwealth Drive,103.796796430683,1.30164998775
hawker,Blks 2 & 3 Changi Village Road,103.988091826679,1.38965834308064
hawker,Blks 20/21 Marsiling Lane,103.777210383669,1.44383165244262
hawker,Blks 221 A/B Boon Lay Place,103.712800680774,1.34522406568893
hawker,Blks 22A/B Havelock Road,103.829362888759,1.28775546193797
hawker,Blks 79/79A Circuit Road,103.88491977038,1.32550687436813
hawker,Blks 91/92 Whampoa Drive,103.857752875203,1.32471579654689
hawker,Chinatown Market,103.843238518071,1.2822749605271
hawker,Chong Pang Market & Food Centre,103.830029543751,1.42961544508137
hawker,Hong Lim Market & Food Centre,103.845823802043,1.28529907736773
hawker,Kovan Market & Food Centre,103.886055368064,1.35908384091048
hawker,Pek Kio Market & Food Centre,103.850232935162,1.31613128029458
hawker,People's Park Food Centre,103.842578771054,1.28485860802646
hawker,Tekka Market,103.850611312978,1.30617705352996
mall,100 AM,103.84347073661,1.27458821795426
mall,313@Somerset,103.838360664485,1.30101436404056
mall,Aperia,103.86431321816,1.3104736675734
mall,Balestier Hill Shopping Centre,103.842571612968,1.32559594839311
mall,Bugis Cube,103.855635339249,1.2981408343975
mall,Bugis Junction,103.855411173758,1.29911287475873
mall,Bugis+,103.855172625542,1.30095171530648
mall,Capitol Piazza,103.851261982149,1.29307884763132
mall,Cathay Cineleisure Orchard,103.836463810773,1.30146393496315
mall,The Centrepoint,103.840034074858,1.30145045537088
mall,City Square Mall,103.856626855768,1.3113827185663
mall,CityLink Mall,103.854316064564,1.29260349413333
mall,Duo,103.85840168774,1.29953434891664
mall,Far East Plaza,103.833818438639,1.30730468891062
mall,Funan,103.849989790085,1.29134759697794
mall,Great World City,103.832022146655,1.29342272650003
mall,HDB Hub,103.84984949662,1.33201387005935
mall,ION Orchard,103.831988903795,1.30399286856099
mall,Junction 8,103.848553703258,1.35017243180201
mall,Knightsbridge,103.836283923443,1.3029831225958
mall,Liat Towers,103.830722581168,1.30508722710852
mall,Lucky Plaza,103.834005158524,1.3044637897474
mall,Marina Bay Sands,103.861005919029,1.28466203640592
mall,The Shoppes at Marina Bay Sands,103.85898228297,1.28423496027027
mall,Marina Bay Link Mall,103.854284863268,1.28003113385646
mall,Marina Square,103.857048715656,1.29159480494333
mall,Millenia Walk,103.860302888543,1.29267926922552
mall,Ngee Ann City,103.834899517575,1.3022727300848
mall,Orchard Central,103.839434733899,1.30083890839245
mall,Orchard Gateway,103.838868886519,1.30160116957544
mall,Orchard Plaza,103.841150144584,1.30125729409965
mall,Midpoint Orchard,103.838659766022,1.30178778502846
mall,Palais Renaissance,103.829588045188,1.30665484543191
mall,People's Park Centre,103.843861556498,1.28564781446701
mall,People's Park Complex,103.842590753293,1.28404487854559
mall,Plaza Singapura,103.845067272938,1.30082071769235
mall,Raffles City,103.853333627297,1.29397670992871
mall,Scotts Square,103.833074706219,1.30579942993543
mall,Sim Lim Square,103.853031869482,1.30290658774258
mall,Singapore Shopping Centre,103.844628721032,1.28649701803051
mall,The South Beach,103.856276242094,1.29498804392056
mall,Square 2,103.850812513482,1.27822949964567
mall,Sunshine Plaza,103.850556061949,1.30046735366415
mall,Suntec City,103.857307495824,1.29350132535558
mall,Tanglin Mall,103.823883490852,1.30485342102105
mall,Tanjong Pagar Centre,103.842393171342,1.2755961982077
mall,Tekka Centre,103.85013440636,1.30671098278725
mall,The Adelphi,103.851184338699,1.29118503658447
mall,The Paragon,103.835857545469,1.30387230879994
mall,Tiong Bahru Plaza,103.827015256194,1.28645889472825
mall,The Poiz,103.868659488195,1.33202729656296
mall,Thomson Plaza,103.83030941613,1.35436282723449
mall,United Square,103.843611443038,1.31719450988559
mall,Thomson V,103.835564729862,1.35319495337208
mall,Velocity@Novena Square,103.844033569199,1.31978949204523
mall,Wheelock Place,103.830642027577,1.30467628730252
mall,Wisma Atria,103.833205752808,1.30370477426147
mall,Zhongshan Mall,103.846554377679,1.32694504484324
mall,Bedok Mall,103.92918919889,1.32475054237912
mall,Century Square,103.943727694121,1.35227804040128
mall,Our Tampines Hub,103.940598001519,1.35218046898785
mall,Changi City Point,103.962946043413,1.33408363820793
mall,Downtown East,103.955689449482,1.3765903645695
mall,Djitsun Mall Bedok,103.929554495615,1.32611970329469
mall,Eastpoint Mall,103.953024618234,1.34270592355576
mall,Jewel Changi Airport,103.989989170512,1.36006289399606
mall,Katong Shopping Centre,103.901040040407,1.30382040183737
mall,Katong Square,103.904617722414,1.30477683917233
mall,Kallang Wave Mall,103.873149707591,1.30307515150401
mall,Leisure Park Kallang,103.876152665088,1.30222177381282
mall,i12 Katong,103.905043928938,1.30522306203042
mall,Parkway Parade,103.905279491524,1.30106975506311
mall,Paya Lebar Square,103.892580778242,1.31881486980278
mall,Roxy Square,103.904051120306,1.30432599904899
mall,Singpost Centre,103.894894915962,1.31899666903663
mall,Tampines 1,103.933979581362,1.34633535808984
mall,Tampines Mall,103.944785968039,1.35259361362837
mall,White Sands,103.949733905672,1.37228761596577
mall,City Plaza,103.893508573389,1.31470866320366
mall,Elias Mall,103.94233582068,1.37790533095468
mall,Loyang Point,103.964635610477,1.36706634197242
mall,888 Plaza,103.795316064775,1.43711856085535
mall,Admiralty Place,103.801541769047,1.44042008562425
mall,AMK Hub,103.848464053097,1.36925511350953
mall,Canberra Plaza,103.830345369213,1.44349544527985
mall,Causeway Point,103.785795816344,1.43590007901468
mall,Woodlands Civic Centre,103.786816106255,1.43515024446739
mall,Broadway Plaza,103.845949444498,1.37193729131781
mall,Djitsun Mall,103.929554495615,1.32611970329469
mall,Jubilee Square,103.847837565378,1.37178558575829
mall,Junction 8,103.848553703258,1.35017243180201
mall,Junction Nine,103.84166098599,1.4331228398318
mall,Marsiling Mall,103.77988189197,1.43354318137534
mall,Northpoint City,103.836419992398,1.42822560922688
mall,Sembawang Shopping Centre,103.824832415833,1.44185325264629
mall,Sun Plaza,103.819523749458,1.44823113453257
mall,Vista Point,103.794104795966,1.4308011390122
mall,Wisteria Mall,103.841317292608,1.41798969122298
mall,Woodlands Mart,103.798162285805,1.44564787003157
mall,Woodlands North Plaza,103.790548015512,1.44275334327795
mall,Waterway Point,103.902172248289,1.40637933605759
mall,Compass One,103.89507054384,1.39205314156706
mall,Hougang Mall,103.893788141349,1.37248308734511
mall,Heartland Mall,103.885169070198,1.35954450890401
mall,NEX,103.872296143862,1.35076935257845
mall,Buangkok Square,103.881623070164,1.38433426615655
mall,Greenwich V,103.869135978173,1.38739539397015
mall,Hougang 1,103.889828868222,1.35664284566921
mall,Hougang Green Shopping Mall,103.88784708944,1.37931783499145
mall,Hougang Rivercourt,103.894742116488,1.36220591877146
mall,myVillage At Serangoon Garden,103.865159501442,1.36511490572797
mall,Northshore Plaza,103.902074379502,1.41676127156324
mall,Oasis Terraces,103.913215101343,1.40278015725693
mall,Punggol Plaza,103.913047323223,1.39423719717117
mall,Rivervale Mall,103.904471600025,1.39219777838449
mall,Rivervale Plaza,103.901988424927,1.38550420775531
mall,The Seletar Mall,103.876125507257,1.39147015374628
mall,Upper Serangoon Shopping Centre,103.878828134896,1.35348082277147
mall,Beauty World Centre,103.776539385406,1.34241264188642
mall,Beauty World Plaza,103.776259359854,1.34180018619223
mall,Bukit Panjang Plaza,103.764377765935,1.37988291404114
mall,Bukit Timah Plaza,103.778585430975,1.3386316527745
mall,Fajar Shopping Centre,103.770868459633,1.38357469942896
mall,Greenridge Shopping Centre,103.766228468185,1.38540569283271
mall,Hillion Mall,103.76382945872,1.37841165144214
mall,HillV2,103.76417292006,1.36267450828024
mall,Junction 10,103.760106974822,1.38055127973087
mall,Keat Hong Shopping Centre,103.744393648768,1.37736607441394
mall,Limbang Shopping Centre,103.743099573442,1.3920738867617
mall,Lot One,103.745238868238,1.38506992325619
mall,Rail Mall,103.768137724847,1.35773050150178
mall,Sunshine Place,103.739015486021,1.37789727709418
mall,Teck Whye Shopping Centre,103.752483841199,1.38004752975397
mall,West Mall,103.74912389291,1.35037541626109
mall,Yew Tee Point,103.746662121143,1.39705741516141
mall,Yew Tee Square,103.747188486453,1.39836942665376
mall,321 Clementi,103.764986676365,1.31200212030821
mall,The Clementi Mall,103.764423054189,1.31489619639366
mall,IMM,103.746894773008,1.33487526118006
mall,JCube,103.740187071348,1.33332312550425
mall,Jem,103.743503708169,1.33305999269581
mall,Westgate,103.742766484424,1.33415767556867
mall,Jurong Point,103.706685012926,1.3394520043632
mall,Pioneer Mall,103.697174842118,1.34169239214292
mall,The Star Vista,103.788462732266,1.30681500712523
mall,Alexandra Central,103.805283367958,1.28728320930592
mall,Anchorpoint,103.805607779399,1.28893477974497
mall,Boon Lay Shopping Centre,103.712472819666,1.34637376407877
mall,Grantral Mall,103.765147487482,1.31427043922294
mall,Fairprice Hub,103.940139392679,1.35349593581988
mall,Gek Poh Shopping Centre,103.697739629738,1.3487416466288
mall,Rochester Mall,103.788446680148,1.30540765569962
mall,Taman Jurong Shopping Centre,103.720462024278,1.33484487471259
mall,West Coast Plaza,103.76610375397,1.30358622534992
mall,Queensway Shopping Centre,103.803391140455,1.2876179255874
mrt,EUNOS MRT STATION,103.90325246673828,1.3197789515536371
mrt,CHINESE GARDEN MRT STATION,103.73259673807335,1.3423528208747444
mrt,KHATIB MRT STATION,103.83297990773832,1.4173833701535468
mrt,KRANJI MRT STATION,103.7621654109002,1.4251776987704483
mrt,REDHILL MRT STATION,103.81681667014902,1.2895627264024532
mrt,YEW TEE MRT STATION,103.74740511413792,1.3975350177934125
mrt,PIONEER MRT STATION,103.69732151293609,1.3375868822047494
mrt,COMMONWEALTH MRT STATION,103.79830451562896,1.3024387353271702
mrt,PAYA LEBAR MRT STATION,103.8930603552516,1.318112082295278
mrt,SIMEI MRT STATION,103.95337169417571,1.343202894930727
mrt,TAMPINES MRT STATION,103.945148688649,1.3533013563424343
mrt,ADMIRALTY MRT STATION,103.80098800081232,1.4405850010854109
mrt,YISHUN MRT STATION,103.8350050461946,1.4294430808108003
mrt,PASIR RIS MRT STATION,103.9492681182454,1.37298377357949
mrt,CLEMENTI MRT STATION,103.76529887432638,1.3149544924235943
mrt,ALJUNIED MRT STATION,103.88290604466044,1.316432611657838
mrt,ANG MO KIO MRT STATION,103.84993299388984,1.3693473037885635
mrt,EXPO MRT STATION,103.96154821070796,1.3345497778378117
mrt,CHOA CHU KANG MRT STATION,103.74434094618154,1.3853616928288095
mrt,JURONG EAST MRT STATION,103.7422865440047,1.3331526198940653
mrt,QUEENSTOWN MRT STATION,103.805884333892,1.2948609327949876
mrt,TUAS LINK MRT STATION,103.63687867834884,1.340463765648207
mrt,GUL CIRCLE MRT STATION,103.660552955908,1.3195052149382065
mrt,WOODLANDS MRT STATION,103.78648513490744,1.4368751282107552
mrt,TUAS CRESCENT MRT STATION,103.64907547830892,1.3210265532422654
mrt,KALLANG MRT STATION,103.87138654135926,1.3114889096421625
mrt,TUAS WEST ROAD MRT STATION,103.63961405603035,1.3299890890491357
mrt,BUONA VISTA MRT STATION,103.79019153517372,1.307183466547333
mrt,DOVER MRT STATION,103.77863784163792,1.3114052929253075
mrt,SEMBAWANG MRT STATION,103.82004614054829,1.4490508212272943
mrt,KEMBANGAN MRT STATION,103.9129493883634,1.3210382488510848
mrt,BUKIT BATOK MRT STATION,103.74956676385231,1.3490341085766733
mrt,BOON LAY MRT STATION,103.70606462259596,1.3386040545032738
mrt,BUKIT GOMBAK MRT STATION,103.75189350208204,1.3587618572614455
mrt,MARSILING MRT STATION,103.77407146126208,1.4325144206356422
mrt,BEDOK MRT STATION,103.92998449462056,1.3239799688877467
mrt,JOO KOON MRT STATION,103.67837514285053,1.32771717309168
mrt,LAKESIDE MRT STATION,103.72094926847876,1.3442592493946972
mrt,TANAH MERAH MRT STATION,103.94634646062272,1.3271871345383557
mrt,YIO CHU KANG MRT STATION,103.84494728975424,1.3817560461130038
mrt,OASIS LRT STATION,103.91272735563076,1.402286677493708
mrt,SAM KEE LRT STATION,103.90483155051864,1.409612685086607
mrt,FARMWAY LRT STATION,103.88930481043572,1.3971701964580427
mrt,KUPANG LRT STATION,103.88125622197416,1.3982128283971755
mrt,RENJONG LRT STATION,103.8905394271551,1.3867239215280005
mrt,BUKIT PANJANG LRT STATION,103.76301363378538,1.377909897982203
mrt,FAJAR LRT STATION,103.7708085825086,1.3845207961752235
mrt,PUNGGOL LRT STATION,103.90241191198471,1.4051947013024328
mrt,SAMUDERA LRT STATION,103.90215631639084,1.4159017194387675
mrt,NIBONG LRT STATION,103.90031381767317,1.4118704584532271
mrt,SOO TECK LRT STATION,103.8972096503174,1.4050885848539645
mrt,KADALOOR LRT STATION,103.91648666197332,1.3995848527611094
mrt,CORAL EDGE LRT STATION,103.9125808548093,1.393909226117486
mrt,THANGGAM LRT STATION,103.87563515645569,1.3973181549952225
mrt,KEAT HONG LRT STATION,103.74905551939932,1.378602765983026
mrt,DAMAI LRT STATION,103.90860354364428,1.4052348361719906
mrt,COVE LRT STATION,103.9059619440764,1.3992819850199325
mrt,RIVIERA LRT STATION,103.91616605898768,1.3945244957690124
mrt,SENJA LRT STATION,103.76236722595048,1.3826922958241612
mrt,JELAPANG LRT STATION,103.76450333815882,1.386703025013921
mrt,PETIR LRT STATION,103.766668960223,1.3777503338172217
mrt,TECK WHYE LRT STATION,103.75371223219943,1.3766846794439074
mrt,CHOA CHU KANG LRT STATION,103.7445537312411,1.3848363599658255
mrt,SOUTH VIEW LRT STATION,103.74529180004232,1.380298287217282
mrt,LAYAR LRT STATION,103.88002960034964,1.392079838772599
mrt,KANGKAR LRT STATION,103.90217398876578,1.3839789018335389
mrt,MERIDIAN LRT STATION,103.9089502169662,1.3969120530632737
mrt,CHENG LIM LRT STATION,103.89379718083607,1.3962776313358083
mrt,PUNGGOL POINT LRT STATION,103.90665079046616,1.4168485204957677
mrt,SUMANG LRT STATION,103.89855845404988,1.4084524256476956
mrt,FERNVALE LRT STATION,103.87630861136844,1.391885887744102
mrt,TONGKANG LRT STATION,103.88584414990768,1.3893479529596946
mrt,PENDING LRT STATION,103.77127017861224,1.376142882785048
mrt,TECK LEE LRT STATION,103.90657762270187,1.4127708938635477
mrt,BANGKIT LRT STATION,103.77264907257116,1.3800178972420925
mrt,BAKAU LRT STATION,103.90543910424007,1.3880927037751092
mrt,RUMBIA LRT STATION,103.90597359531088,1.391468496838555
mrt,COMPASSVALE LRT STATION,103.90049245062764,1.3944930461980638
mrt,RANGGUNG LRT STATION,103.89753716196952,1.3838854419159177
mrt,PHOENIX LRT STATION,103.75803409838647,1.3786188444529008
mrt,SEGAR LRT STATION,103.76959839678024,1.387772130860874
mrt,SENGKANG LRT STATION,103.89544258366438,1.3916093638162654
mrt,BRAS BASAH MRT STATION,103.8506673717781,1.2968616865276132
mrt,MACPHERSON MRT STATION,103.8902870313661,1.326345371661258
mrt,CITY HALL MRT STATION,103.85258589234417,1.2929362428460929
mrt,TAMPINES EAST MRT STATION,103.95463446292943,1.356191483037002
mrt,TAMPINES WEST MRT STATION,103.93843697135333,1.34551530530169
mrt,GEYLANG BAHRU MRT STATION,103.8719006257064,1.3215058380176048
mrt,BENDEMEER MRT STATION,103.8629779874744,1.313672232544496
mrt,BENCOOLEN MRT STATION,103.85038425491643,1.2988642704173592
mrt,HARBOURFRONT MRT STATION,103.82144306908803,1.265472639862096
mrt,KENT RIDGE MRT STATION,103.78442746062646,1.2934960617448048
mrt,PUNGGOL MRT STATION,103.90207263840692,1.4045467277879482
mrt,TANJONG PAGAR MRT STATION,103.8458642293472,1.27652124669304
mrt,ONE-NORTH MRT STATION,103.78745750783104,1.299759878591986
mrt,STADIUM MRT STATION,103.8753503351786,1.302840629633224
mrt,BUGIS MRT STATION,103.85570641401658,1.3004650763152503
mrt,SOMERSET MRT STATION,103.83907516234385,1.3002600550654384
mrt,ORCHARD MRT STATION,103.83224145206746,1.3039810124368771
mrt,JALAN BESAR MRT STATION,103.85547701633922,1.3054036422232524
mrt,BAYFRONT MRT STATION,103.8590797651323,1.2818737884915377
mrt,SENGKANG MRT STATION,103.8954846941603,1.3916946260989878
mrt,BUKIT BROWN MRT STATION,103.83068955013653,1.3337288823214424
mrt,MOUNTBATTEN MRT STATION,103.8825280808098,1.3062019048312363
mrt,KOVAN MRT STATION,103.8850648563362,1.3601791711791509
mrt,FORT CANNING MRT STATION,103.84432826960943,1.2924789279174818
mrt,FARRER ROAD MRT STATION,103.80758610574624,1.3175106118957656
mrt,DOWNTOWN MRT STATION,103.85284044403936,1.279446190378722
mrt,ESPLANADE MRT STATION,103.8555041055266,1.2933216076112375
mrt,NICOLL HIGHWAY MRT STATION,103.86363701849602,1.299766835267978
mrt,CALDECOTT MRT STATION,103.8395298207638,1.3376745080443386
mrt,MARINA BAY MRT STATION,103.85459777754323,1.2764273547506024
mrt,LABRADOR PARK MRT STATION,103.80293962041964,1.2723327315964736
mrt,CHINATOWN MRT STATION,103.84342677594374,1.2843595782329786
mrt,TAN KAH KEE MRT STATION,103.80732220761212,1.3258832089224446
mrt,TIONG BAHRU MRT STATION,103.82701943092376,1.28619339285898
mrt,HILLVIEW MRT STATION,103.76741825445647,1.3623448685278603
mrt,KING ALBERT PARK MRT STATION,103.78380665887346,1.3356651207597656
mrt,MATTAR MRT STATION,103.88324750917997,1.3268767147126137
mrt,UBI MRT STATION,103.8992525249772,1.329956825703842
mrt,BEAUTY WORLD MRT STATION,103.77579428529484,1.34122317571135
mrt,KAKI BUKIT MRT STATION,103.90845973446444,1.334967301564287
mrt,BEDOK NORTH MRT STATION,103.91797832977343,1.3347421167583993
mrt,DHOBY GHAUT MRT STATION,103.84611515467624,1.2987013066295312
mrt,WOODLEIGH MRT STATION,103.87081830937498,1.339190045525152
mrt,NOVENA MRT STATION,103.84382561881532,1.3204407908478988
mrt,SERANGOON MRT STATION,103.87357484685836,1.3497078753792613
mrt,BEDOK RESERVOIR MRT STATION,103.93223462362464,1.336607829810492
mrt,MARINA SOUTH PIER MRT STATION,103.86285976963735,1.2713367113291696
mrt,FARRER PARK MRT STATION,103.8541771415314,1.3123598402121364
mrt,BARTLEY MRT STATION,103.87975890622788,1.342828337737579
mrt,DAKOTA MRT STATION,103.88866260393172,1.3083826392669968
mrt,PASIR PANJANG MRT STATION,103.79135031315435,1.2762135226853348
mrt,CLARKE QUAY MRT STATION,103.84655520929512,1.2883860242011411
mrt,BISHAN MRT STATION,103.84814396447456,1.3508389876938425
mrt,MARYMOUNT MRT STATION,103.83942313256962,1.3487072630182246
mrt,HAW PAR VILLA MRT STATION,103.78181045132038,1.282542156642901
mrt,LORONG CHUAN MRT STATION,103.8641519380472,1.35161217102563
mrt,LAVENDER MRT STATION,103.86282920810665,1.3073570200955626
mrt,TAI SENG MRT STATION,103.88819486115298,1.3354333222229142
mrt,ROCHOR MRT STATION,103.85242168070454,1.3039164839645871
mrt,LITTLE INDIA MRT STATION,103.8496469665724,1.3068000253123342
mrt,STEVENS MRT STATION,103.8260244022438,1.3200655570067297
mrt,BUKIT PANJANG MRT STATION,103.76153511473294,1.379002116717668
mrt,CASHEW MRT STATION,103.76469442231075,1.3693698310643436
mrt,SIXTH AVENUE MRT STATION,103.79724631666106,1.330786387363983
mrt,TOA PAYOH MRT STATION,103.8475017643402,1.332628987123201
mrt,WOODLANDS SOUTH MRT STATION,103.7938508924378,1.4272599787112468
mrt,POTONG PASIR MRT STATION,103.86905566527228,1.3313795246192943
mrt,HOUGANG MRT STATION,103.89238051891172,1.3712922916785375
mrt,BOON KENG MRT STATION,103.8616865018698,1.3193957060230523
mrt,UPPER CHANGI MRT STATION,103.9614717886784,1.3417374838931966
mrt,CHANGI AIRPORT MRT STATION,103.98836465850532,1.3573145453309785
mrt,BRADDELL MRT STATION,103.84679784541233,1.340471684451099
mrt,BUANGKOK MRT STATION,103.8931215647853,1.382877858147225
mrt,PROMENADE MRT STATION,103.860999155887,1.2932180514893272
mrt,BOTANIC GARDENS MRT STATION,103.81498275034396,1.3221101929847647
mrt,RAFFLES PLACE MRT STATION,103.85146171209112,1.2841256105732046
mrt,HOLLAND VILLAGE MRT STATION,103.79619182386152,1.3118347904021326
mrt,OUTRAM PARK MRT STATION,103.8391264975836,1.2814049781301369
mrt,TELOK BLANGAH MRT STATION,103.80974863683566,1.270753211458579
mrt,TELOK AYER MRT STATION,103.84830280619272,1.2822895361922544
mrt,NEWTON MRT STATION,103.83798529963272,1.3123200995556394
mrt,CANBERRA MRT STATION,103.82971180026024,1.443136699719395
mrt,WOODLANDS NORTH MRT STATION,103.78569270000877,1.448292499870659
mrt,HUME MRT STATION,103.76909924150804,1.3545176075254892
mrt,SPRINGLEAF MRT STATION,103.81808184986264,1.3981608610259548
mrt,LENTOR MRT STATION,103.8364694869142,1.3850619469262857
mrt,MAYFLOWER MRT STATION,103.83682393201484,1.3720866386742012
mrt,BRIGHT HILL MRT STATION,103.8329359578363,1.3633080980958083
mrt,UPPER THOMSON MRT STATION,103.83293816886057,1.3544118531277336
school,ADMIRALTY PRIMARY SCHOOL,103.800040119743,1.4426347903311
school,ADMIRALTY SECONDARY SCHOOL,103.802398196596,1.44589068910993
school,AHMAD IBRAHIM PRIMARY SCHOOL,103.832942401086,1.43315271543517
school,AHMAD IBRAHIM SECONDARY SCHOOL,103.829718690077,1.43605975368804
school,AI TONG SCHOOL,103.833020333986,1.3605834338904
school,ALEXANDRA PRIMARY SCHOOL,103.824424680531,1.29133439161334
school,ANCHOR GREEN PRIMARY SCHOOL,103.887165375933,1.39036998654612
school,ANDERSON PRIMARY SCHOOL,103.841411716006,1.38419941907925
school,ANDERSON SECONDARY SCHOOL,103.851554107068,1.37434001701177
school,ANDERSON SERANGOON JUNIOR COLLEGE,103.845885968342,1.37839670972543
school,ANG MO KIO PRIMARY SCHOOL,103.839630858752,1.36932176584608
school,ANG MO KIO SECONDARY SCHOOL,103.842154973672,1.36733710171069
school,ANGLICAN HIGH SCHOOL,103.941082513081,1.33058126205128
school,ANGLO-CHINESE JUNIOR COLLEGE,103.785358436408,1.30304255193392
school,ANGLO-CHINESE SCHOOL (BARKER ROAD),103.835772689988,1.31961649151328
school,ANGLO-CHINESE SCHOOL (INDEPENDENT),103.780363417671,1.30370409257783
school,ANGLO-CHINESE SCHOOL (JUNIOR),103.840950265464,1.30935041274966
school,ANGLO-CHINESE SCHOOL (PRIMARY),103.835609732354,1.31837054523521
school,ANGSANA PRIMARY SCHOOL,103.951482746538,1.34828400809545
school,ASSUMPTION ENGLISH SCHOOL,103.766687526556,1.36838160662857
school,ASSUMPTION PATHWAY SCHOOL,103.765959130581,1.3696707043227
school,BARTLEY SECONDARY SCHOOL,103.882806211705,1.33995415587811
school,BEACON PRIMARY SCHOOL,103.773632022975,1.38394936211823
school,BEATTY SECONDARY SCHOOL,103.852280842345,1.341790284928
school,BEDOK GREEN PRIMARY SCHOOL,103.937878976352,1.32344593287992
school,BEDOK GREEN SECONDARY SCHOOL,103.935028383346,1.33451947288431
school,BEDOK SOUTH SECONDARY SCHOOL,103.950989139261,1.32513655159184
school,BEDOK VIEW SECONDARY SCHOOL,103.943776245024,1.32415704029686
school,BENDEMEER PRIMARY SCHOOL,103.865404167629,1.32181250780475
school,BENDEMEER SECONDARY SCHOOL,103.860518349544,1.32434843114787
school,BLANGAH RISE PRIMARY SCHOOL,103.808628535239,1.27612047924037
school,BOON LAY GARDEN PRIMARY SCHOOL,103.712858381937,1.34284013791617
school,BOON LAY SECONDARY SCHOOL,103.701891453912,1.34272216334333
school,BOWEN SECONDARY SCHOOL,103.877659577677,1.37035994436209
school,BROADRICK SECONDARY SCHOOL,103.886917922608,1.30705061123433
school,BUKIT BATOK SECONDARY SCHOOL,103.74087370482,1.34849111079052
school,BUKIT MERAH SECONDARY SCHOOL,103.813438929393,1.28569283064288
school,BUKIT PANJANG GOVT. HIGH SCHOOL,103.738361221869,1.38224243360043
school,BUKIT PANJANG PRIMARY SCHOOL,103.769417337654,1.37350089986584
school,BUKIT TIMAH PRIMARY SCHOOL,103.766855344779,1.3377498622588
school,BUKIT VIEW PRIMARY SCHOOL,103.75366641455,1.34586054788695
school,BUKIT VIEW SECONDARY SCHOOL,103.752226593984,1.3457330554294
school,CANBERRA PRIMARY SCHOOL,103.815858858929,1.45125024371543
school,CANBERRA SECONDARY SCHOOL,103.814203583818,1.45319086315972
school,CANOSSA CATHOLIC PRIMARY SCHOOL,103.882227964852,1.32664424544839
school,CANTONMENT PRIMARY SCHOOL,103.839962631748,1.27547252623201
school,CASUARINA PRIMARY SCHOOL,103.957020286115,1.37246063927999
school,CATHOLIC HIGH SCHOOL,103.844874676599,1.3547230747166
school,CATHOLIC JUNIOR COLLEGE,103.835028842353,1.32455605783219
school,CEDAR GIRLS' SECONDARY SCHOOL,103.873933064886,1.33375800216334
school,CEDAR PRIMARY SCHOOL,103.87562006259,1.33566084356265
school,CHANGKAT CHANGI SECONDARY SCHOOL,103.953245525564,1.33950630072876
school,CHANGKAT PRIMARY SCHOOL,103.952080114035,1.34023163951633
school,CHIJ (KATONG) PRIMARY,103.911105620496,1.30648535277087
school,CHIJ (KELLOCK),103.828157564896,1.275022722964
school,CHIJ KATONG CONVENT,103.917144350028,1.30644268034894
school,CHIJ OUR LADY OF GOOD COUNSEL,103.864009397373,1.35742952269615
school,CHIJ OUR LADY OF THE NATIVITY,103.897575728303,1.37330297140128
school,CHIJ OUR LADY QUEEN OF PEACE,103.767412204602,1.366603668561
school,CHIJ PRIMARY (TOA PAYOH),103.841847263786,1.33275264711587
school,CHIJ SECONDARY (TOA PAYOH),103.843271625083,1.33246079948303
school,CHIJ ST. JOSEPH'S CONVENT,103.902464991543,1.39175222260369
school,CHIJ ST. NICHOLAS GIRLS' SCHOOL,103.834253269436,1.37347687878916
school,CHIJ ST. THERESA'S CONVENT,103.822440701642,1.27535177510054
school,CHONGFU SCHOOL,103.839309173817,1.43839562897006
school,CHONGZHENG PRIMARY SCHOOL,103.951317297552,1.35061130568554
school,CHRIST CHURCH SECONDARY SCHOOL,103.793451105242,1.42656780901455
school,CHUA CHU KANG PRIMARY SCHOOL,103.741832917421,1.37775890093367
school,CHUA CHU KANG SECONDARY SCHOOL,103.751878290333,1.38319029263484
school,CHUNG CHENG HIGH SCHOOL (MAIN),103.891653229373,1.30509154753048
school,CHUNG CHENG HIGH SCHOOL (YISHUN),103.837390782849,1.41922603586175
school,CLEMENTI PRIMARY SCHOOL,103.763144493687,1.31506321827875
school,CLEMENTI TOWN SECONDARY SCHOOL,103.762020598524,1.31553912945073
school,COMMONWEALTH SECONDARY SCHOOL,103.745637393049,1.31920395934801
school,COMPASSVALE PRIMARY SCHOOL,103.847424110235,1.28859134761324
school,COMPASSVALE SECONDARY SCHOOL,103.899847164494,1.39614083952009
school,CONCORD PRIMARY SCHOOL,103.736554295636,1.38026516111464
school,CORPORATION PRIMARY SCHOOL,103.707578404944,1.35148548772662
school,CRESCENT GIRLS' SCHOOL,103.817544461755,1.29331947077104
school,CREST SECONDARY SCHOOL,103.742628105304,1.3431198045076
school,DAMAI PRIMARY SCHOOL,103.921286435321,1.33524602829747
school,DAMAI SECONDARY SCHOOL,103.927091653438,1.33692798510393
school,DAZHONG PRIMARY SCHOOL,103.74847210784,1.3591797447277
school,DE LA SALLE SCHOOL,103.743201812831,1.3947078296399
school,DEYI SECONDARY SCHOOL,103.852545772422,1.36599702567717
school,DUNEARN SECONDARY SCHOOL,103.74472109107,1.36357900792871
school,DUNMAN HIGH SCHOOL,103.88294155989,1.29996216014962
school,DUNMAN SECONDARY SCHOOL,103.956213906966,1.36065258337022
school,EAST SPRING PRIMARY SCHOOL,103.961676849165,1.35268400746357
school,EAST SPRING SECONDARY SCHOOL,103.960640700298,1.35622508992581
school,EDGEFIELD PRIMARY SCHOOL,103.907847599114,1.40009139510996
school,EDGEFIELD SECONDARY SCHOOL,103.902687385465,1.40059309981824
school,ELIAS PARK PRIMARY SCHOOL,103.945289416873,1.37505696315817
school,ENDEAVOUR PRIMARY SCHOOL,103.817174701639,1.45388170417263
school,EUNOIA JUNIOR COLLEGE,103.841286169122,1.36213757183547
school,EVERGREEN PRIMARY SCHOOL,103.794545295922,1.44414835451585
school,EVERGREEN SECONDARY SCHOOL,103.794137756171,1.44149131273737
school,FAIRFIELD METHODIST SCHOOL (PRIMARY),103.785455606827,1.30100441916733
school,FAIRFIELD METHODIST SCHOOL (SECONDARY),103.784099647149,1.30163374395823
school,FARRER PARK PRIMARY SCHOOL,103.850766402965,1.31236867681371
school,FENGSHAN PRIMARY SCHOOL,103.931710293058,1.32980598760785
school,FERN GREEN PRIMARY SCHOOL,103.880330305684,1.39726966050479
school,FERNVALE PRIMARY SCHOOL,103.874445458032,1.39030227963797
school,FIRST TOA PAYOH PRIMARY SCHOOL,103.855529906182,1.34032299499938
school,FRONTIER PRIMARY SCHOOL,103.69970173931,1.33641298743234
school,FUCHUN PRIMARY SCHOOL,103.778192944298,1.43047990810126
school,FUHUA PRIMARY SCHOOL,103.736089481883,1.33659726465816
school,FUHUA SECONDARY SCHOOL,103.72652089832,1.34701408913756
school,GAN ENG SENG PRIMARY SCHOOL,103.815547410064,1.28559516494962
school,GAN ENG SENG SCHOOL,103.823733673089,1.28907114485773
school,GEYLANG METHODIST SCHOOL (PRIMARY),103.883628501601,1.31814416827374
school,GEYLANG METHODIST SCHOOL (SECONDARY),103.882661129303,1.31764900474601
school,GONGSHANG PRIMARY SCHOOL,103.949144797277,1.35711606790292
school,GREENDALE PRIMARY SCHOOL,103.91233462071,1.39648195114256
school,GREENDALE SECONDARY SCHOOL,103.91170014084,1.39696019936894
school,GREENRIDGE PRIMARY SCHOOL,103.767794469258,1.3858892193692
school,GREENRIDGE SECONDARY SCHOOL,103.773828466913,1.38186433722811
school,GREENWOOD PRIMARY SCHOOL,103.804725587384,1.43989958331782
school,GUANGYANG SECONDARY SCHOOL,103.850208933626,1.34440856042912
school,HAI SING CATHOLIC SCHOOL,103.954544548905,1.3743371707478
school,HAIG GIRLS' SCHOOL,103.902902557195,1.31194344271383
school,HENRY PARK PRIMARY SCHOOL,103.784296227747,1.31667646178347
school,HILLGROVE SECONDARY SCHOOL,103.752986488399,1.35273576615912
school,HOLY INNOCENTS' HIGH SCHOOL,103.896398814264,1.37154508822261
school,HOLY INNOCENTS' PRIMARY SCHOOL,103.894114899795,1.36693830877349
school,HONG WEN SCHOOL,103.857628468881,1.32175999964553
school,HORIZON PRIMARY SCHOOL,103.913404855665,1.399550034492
school,HOUGANG PRIMARY SCHOOL,103.879472337592,1.37571530699875
school,HOUGANG SECONDARY SCHOOL,103.882533963338,1.37764019332164
school,HUA YI SECONDARY SCHOOL,103.721832320169,1.35234365488339
school,HUAMIN PRIMARY SCHOOL,103.844240226564,1.42697284512936
school,HWA CHONG INSTITUTION,103.803290365022,1.3263580622144
school,INNOVA PRIMARY SCHOOL,103.790607539185,1.42896700684852
school,JIEMIN PRIMARY SCHOOL,103.830425490093,1.42768847665227
school,JING SHAN PRIMARY SCHOOL,103.850864037677,1.36442474404862
school,JUNYUAN PRIMARY SCHOOL,103.939221709073,1.34787074766746
school,JUNYUAN SECONDARY SCHOOL,103.933886165824,1.35361315263537
school,JURONG PIONEER JUNIOR COLLEGE,103.75437461519,1.38437406410733
school,JURONG PRIMARY SCHOOL,103.733156566858,1.34843859698946
school,JURONG SECONDARY SCHOOL,103.723952961648,1.33002032220942
school,JURONG WEST PRIMARY SCHOOL,103.698803732244,1.33917519796104
school,JURONG WEST SECONDARY SCHOOL,103.702098904443,1.33525634688323
school,JURONGVILLE SECONDARY SCHOOL,103.728907710089,1.35128862770284
school,JUYING SECONDARY SCHOOL,103.687310264575,1.3387227734133
school,KEMING PRIMARY SCHOOL,103.756449399351,1.34552849960874
school,KENT RIDGE SECONDARY SCHOOL,103.764889617566,1.30122773426098
school,KHENG CHENG SCHOOL,103.847148501824,1.3373381935639
school,KONG HWA SCHOOL,103.888352029067,1.31099674009193
school,KRANJI PRIMARY SCHOOL,103.747362720939,1.39356050497104
school,KRANJI SECONDARY SCHOOL,103.741190664845,1.39005109871311
school,KUO CHUAN PRESBYTERIAN PRIMARY SCHOOL,103.855018233311,1.34939813669536
school,KUO CHUAN PRESBYTERIAN SECONDARY SCHOOL,103.854983746416,1.35017129930314
school,LAKESIDE PRIMARY SCHOOL,103.718089546664,1.33820397704287
school,LIANHUA PRIMARY SCHOOL,103.754165828711,1.35424191127295
school,LOYANG VIEW SECONDARY SCHOOL,103.956944585725,1.36658417167238
school,MAHA BODHI SCHOOL,103.901306904157,1.32858023873554
school,MANJUSRI SECONDARY SCHOOL,103.901719963831,1.32747123084846
school,MARIS STELLA HIGH SCHOOL,103.87776938227,1.34139822375509
school,MARSILING PRIMARY SCHOOL,103.773643013846,1.43383904037059
school,MARSILING SECONDARY SCHOOL,103.776008090454,1.43664424769955
school,MARYMOUNT CONVENT SCHOOL,103.839811736775,1.34043840661368
school,MAYFLOWER PRIMARY SCHOOL,103.843252803742,1.37637683547682
school,MAYFLOWER SECONDARY SCHOOL,103.835360726863,1.36827266209722
school,MEE TOH SCHOOL,103.90857257736,1.39485356081865
school,MERIDIAN PRIMARY SCHOOL,103.934953276155,1.37550677054835
school,MERIDIAN SECONDARY SCHOOL,103.948972483629,1.3672468492013
school,METHODIST GIRLS' SCHOOL (PRIMARY),103.783382114018,1.33266213599636
school,METHODIST GIRLS' SCHOOL (SECONDARY),103.783382114018,1.33266213599636
school,MILLENNIA INSTITUTE,103.741593577684,1.35031939200985
school,MONTFORT JUNIOR SCHOOL,103.889741457901,1.37362445234082
school,MONTFORT SECONDARY SCHOOL,103.888928372577,1.37396131656912
school,NAN CHIAU HIGH SCHOOL,103.890004423764,1.38879582498399
school,NAN CHIAU PRIMARY SCHOOL,103.891180928186,1.39221149906592
school,NAN HUA HIGH SCHOOL,103.768561446725,1.30809529518605
school,NAN HUA PRIMARY SCHOOL,103.761095065761,1.31920159956387
school,NANYANG GIRLS' HIGH SCHOOL,103.802420979943,1.33058326666479
school,NANYANG JUNIOR COLLEGE,103.866498721912,1.35028314949236
school,NANYANG PRIMARY SCHOOL,103.807681852799,1.32107094241153
school,NATIONAL JUNIOR COLLEGE,103.804110905425,1.33029291072172
school,NAVAL BASE PRIMARY SCHOOL,103.839100590207,1.41590195697649
school,NAVAL BASE SECONDARY SCHOOL,103.831050390247,1.41937881620441
school,NEW TOWN PRIMARY SCHOOL,103.799964819895,1.29981138884057
school,NEW TOWN SECONDARY SCHOOL,103.77318863421,1.30977590011357
school,NGEE ANN PRIMARY SCHOOL,103.917570005713,1.30553224180437
school,NGEE ANN SECONDARY SCHOOL,103.956747262496,1.35447525755806
school,NORTH SPRING PRIMARY SCHOOL,103.903202683028,1.38706146494859
school,NORTH VIEW PRIMARY SCHOOL,103.848378442893,1.42745159462566
school,NORTH VISTA PRIMARY SCHOOL,103.89626457548,1.38255066171151
school,NORTH VISTA SECONDARY SCHOOL,103.899188813886,1.381131285358
school,NORTHBROOKS SECONDARY SCHOOL,103.845147332528,1.42081285020652
school,NORTHLAND PRIMARY SCHOOL,103.840792923345,1.42130404159807
school,NORTHLAND SECONDARY SCHOOL,103.840104687784,1.43580183362637
school,NORTHLIGHT SCHOOL,103.85575955353,1.3191002158167
school,NORTHOAKS PRIMARY SCHOOL,103.814075611175,1.45732867302094
school,NORTHSHORE PRIMARY SCHOOL,103.905147201163,1.41842322079348
school,NUS HIGH SCHOOL OF MATHEMATICS AND SCIENCE,103.769365156929,1.30656448055686
school,OASIS PRIMARY SCHOOL,103.911200193835,1.40507184758584
school,OPERA ESTATE PRIMARY SCHOOL,103.923752668632,1.31996876377748
school,ORCHID PARK SECONDARY SCHOOL,103.837859241343,1.41532032779634
school,OUTRAM SECONDARY SCHOOL,103.837127264403,1.28651357464735
school,PALM VIEW PRIMARY SCHOOL,103.891354675017,1.38376923022123
school,PARK VIEW PRIMARY SCHOOL,103.9392021807,1.37801687647812
school,PASIR RIS CREST SECONDARY SCHOOL,103.959728202919,1.37284060102246
school,PASIR RIS PRIMARY SCHOOL,103.962922699031,1.37245132722087
school,PASIR RIS SECONDARY SCHOOL,103.948962626204,1.35422732653396
school,PAYA LEBAR METHODIST GIRLS' SCHOOL (PRIMARY),103.884846876112,1.3502545600894
school,PAYA LEBAR METHODIST GIRLS' SCHOOL (SECONDARY),103.885120050588,1.35096755912522
school,PEI CHUN PUBLIC SCHOOL,103.855341310212,1.33677864390672
school,PEI HWA PRESBYTERIAN PRIMARY SCHOOL,103.776250903095,1.33807302121151
school,PEI HWA SECONDARY SCHOOL,103.878461745339,1.39037504993234
school,PEI TONG PRIMARY SCHOOL,103.767438999533,1.31666529308968
school,PEICAI SECONDARY SCHOOL,103.870010749055,1.35951583222214
school,PEIRCE SECONDARY SCHOOL,103.83021606804,1.36665944653812
school,PEIYING PRIMARY SCHOOL,103.830143209875,1.41741627551251
school,PIONEER PRIMARY SCHOOL,103.695003812477,1.34883617453427
school,POI CHING SCHOOL,103.935246486174,1.35765121877679
school,PRESBYTERIAN HIGH SCHOOL,103.842382968794,1.38175437421949
school,PRINCESS ELIZABETH PRIMARY SCHOOL,103.740719208011,1.34919098857585
school,PUNGGOL COVE PRIMARY SCHOOL,103.89890448429,1.41158455562454
school,PUNGGOL GREEN PRIMARY SCHOOL,103.898794262307,1.40172590450528
school,PUNGGOL PRIMARY SCHOOL,103.894667159512,1.37820062547641
school,PUNGGOL SECONDARY SCHOOL,103.909213706482,1.40205738421399
school,PUNGGOL VIEW PRIMARY SCHOOL,103.905299026568,1.40505250226058
school,QIFA PRIMARY SCHOOL,103.756629101811,1.3132658326807
school,QIHUA PRIMARY SCHOOL,103.788339762066,1.44203596557592
school,QUEENSTOWN PRIMARY SCHOOL,103.807648475656,1.29552905587752
school,QUEENSTOWN SECONDARY SCHOOL,103.813190980055,1.29352126774652
school,QUEENSWAY SECONDARY SCHOOL,103.802207291625,1.30022271592188
school,RADIN MAS PRIMARY SCHOOL,103.824115781658,1.27489701529771
school,RAFFLES GIRLS' PRIMARY SCHOOL,103.806397828938,1.33004178068277
school,RAFFLES GIRLS' SCHOOL (SECONDARY),103.84313404727,1.34217479932295
school,RAFFLES INSTITUTION,103.845875110532,1.34618775847486
school,RED SWASTIKA SCHOOL,103.934317528484,1.33405659580859
school,REGENT SECONDARY SCHOOL,103.751034411529,1.39327908335682
school,RIVER VALLEY HIGH SCHOOL,103.708190688947,1.34459584223718
school,RIVER VALLEY PRIMARY SCHOOL,103.836018941571,1.29418347842837
school,RIVERSIDE PRIMARY SCHOOL,103.801889031334,1.44700426493785
school,RIVERSIDE SECONDARY SCHOOL,103.78830823641,1.44110157139127
school,RIVERVALE PRIMARY SCHOOL,103.904545253288,1.39333506298213
school,ROSYTH SCHOOL,103.87477170399,1.3728583654058
school,RULANG PRIMARY SCHOOL,103.718457955487,1.34673868889096
school,"SCHOOL OF SCIENCE AND TECHNOLOGY, SINGAPORE",103.774011529322,1.31292810600277
school,"SCHOOL OF THE ARTS, SINGAPORE",103.848687419363,1.29936480411316
school,SEMBAWANG PRIMARY SCHOOL,103.821152676215,1.4457453096024
school,SEMBAWANG SECONDARY SCHOOL,103.816843258118,1.44531502131387
school,SENG KANG PRIMARY SCHOOL,103.899527879229,1.38925044778224
school,SENG KANG SECONDARY SCHOOL,103.898365036709,1.38659683143747
school,SENGKANG GREEN PRIMARY SCHOOL,103.874984869551,1.3925400930811
school,SERANGOON GARDEN SECONDARY SCHOOL,103.869270301476,1.36932570490947
school,SERANGOON SECONDARY SCHOOL,103.902138740699,1.37465538827443
school,SHUQUN PRIMARY SCHOOL,103.721559387203,1.34686967259067
school,SI LING PRIMARY SCHOOL,103.786035065192,1.43240935732525
school,SINGAPORE CHINESE GIRLS' PRIMARY SCHOOL,103.828164966953,1.3206340835184
school,SINGAPORE CHINESE GIRLS' SCHOOL,103.828164966953,1.3206340835184
school,SINGAPORE SPORTS SCHOOL,103.789444793951,1.42641140556342
school,SOUTH VIEW PRIMARY SCHOOL,103.747153671,1.38143123987698
school,SPECTRA SECONDARY SCHOOL,103.804100467487,1.43703750789961
school,SPRINGDALE PRIMARY SCHOOL,103.889416413501,1.39528544463377
school,SPRINGFIELD SECONDARY SCHOOL,103.930354460693,1.34957303471476
school,ST. ANDREW'S JUNIOR COLLEGE,103.863576377056,1.33306515740956
school,ST. ANDREW'S JUNIOR SCHOOL,103.865117134385,1.33140255308868
school,ST. ANDREW'S SECONDARY SCHOOL,103.866249138562,1.33069360968075
school,ST. ANTHONY'S CANOSSIAN PRIMARY SCHOOL,103.941234868202,1.3347253730189
school,ST. ANTHONY'S CANOSSIAN SECONDARY SCHOOL,103.941977166932,1.33466313498855
school,ST. ANTHONY'S PRIMARY SCHOOL,103.749251919049,1.36411948475833
school,ST. GABRIEL'S PRIMARY SCHOOL,103.862309899986,1.34930766795555
school,ST. GABRIEL'S SECONDARY SCHOOL,103.876094163287,1.34648798732177
school,ST. HILDA'S PRIMARY SCHOOL,103.937016363397,1.34967978969837
school,ST. HILDA'S SECONDARY SCHOOL,103.937608032148,1.34973922385379
school,ST. JOSEPH'S INSTITUTION,103.828498974985,1.32365313490152
school,ST. JOSEPH'S INSTITUTION JUNIOR,103.845633334522,1.31781476118551
school,ST. MARGARET'S SCHOOL (PRIMARY),103.845820266438,1.30414407358332
school,ST. MARGARET'S SCHOOL (SECONDARY),103.809602215402,1.31977464050584
school,ST. PATRICK'S SCHOOL,103.917638193713,1.30788341871801
school,ST. STEPHEN'S SCHOOL,103.917258129598,1.31878997295135
school,SWISS COTTAGE SECONDARY SCHOOL,103.750396136688,1.36471742697475
school,TAMPINES MERIDIAN JUNIOR COLLEGE,103.936990723441,1.37633346909682
school,TAMPINES NORTH PRIMARY SCHOOL,103.948768900518,1.36048786025607
school,TAMPINES PRIMARY SCHOOL,103.943573098509,1.3504863946694
school,TAMPINES SECONDARY SCHOOL,103.944263709507,1.34926094811197
school,TANJONG KATONG GIRLS' SCHOOL,103.896107204542,1.3075626184394
school,TANJONG KATONG PRIMARY SCHOOL,103.899999965407,1.30498489044822
school,TANJONG KATONG SECONDARY SCHOOL,103.897225196199,1.30873515955341
school,TAO NAN SCHOOL,103.911553152326,1.30528528687321
school,TECK GHEE PRIMARY SCHOOL,103.851009800453,1.36565018546903
school,TECK WHYE PRIMARY SCHOOL,103.753924558586,1.38388660469396
school,TELOK KURAU PRIMARY SCHOOL,103.911005345855,1.33109611001931
school,TEMASEK JUNIOR COLLEGE,103.956185936394,1.35728017255861
school,TEMASEK PRIMARY SCHOOL,103.94575943784,1.31720341663064
school,TEMASEK SECONDARY SCHOOL,103.947564112022,1.31591673150616
school,TOWNSVILLE PRIMARY SCHOOL,103.853768994775,1.35994649477568
school,UNITY PRIMARY SCHOOL,103.746801233973,1.40278303219036
school,UNITY SECONDARY SCHOOL,103.74602091483,1.40001524119441
school,VALOUR PRIMARY SCHOOL,103.898762173662,1.40744168163777
school,VICTORIA JUNIOR COLLEGE,103.919982704149,1.30670174177479
school,VICTORIA SCHOOL,103.927980966639,1.3087130270751
school,WATERWAY PRIMARY SCHOOL,103.918585924582,1.39889261226315
school,WELLINGTON PRIMARY SCHOOL,103.822516208087,1.45168517614776
school,WEST GROVE PRIMARY SCHOOL,103.698067375909,1.3483403539896
school,WEST SPRING PRIMARY SCHOOL,103.76639772288,1.38917971808454
school,WEST SPRING SECONDARY SCHOOL,103.760128840155,1.38782283303782
school,WEST VIEW PRIMARY SCHOOL,103.760273432258,1.38378546546228
school,WESTWOOD PRIMARY SCHOOL,103.700467520791,1.3477109654722
school,WESTWOOD SECONDARY SCHOOL,103.701772102139,1.35373698510994
school,WHITE SANDS PRIMARY SCHOOL,103.956300375904,1.36877568746945
school,WHITLEY SECONDARY SCHOOL,103.842552378136,1.35505208480649
school,WOODGROVE PRIMARY SCHOOL,103.79023031392,1.43273620725049
school,WOODGROVE SECONDARY SCHOOL,103.79604758539,1.42831828137013
school,WOODLANDS PRIMARY SCHOOL,103.791791282236,1.43658270720199
school,WOODLANDS RING PRIMARY SCHOOL,103.79741434351,1.43485179380236
school,WOODLANDS RING SECONDARY SCHOOL,103.777625748539,1.43070452883799
school,WOODLANDS SECONDARY SCHOOL,103.774586410437,1.43912528141356
school,XINGHUA PRIMARY SCHOOL,103.890216355459,1.35799653782463
school,XINGNAN PRIMARY SCHOOL,103.687588478681,1.34270639669225
school,XINMIN PRIMARY SCHOOL,103.88280991785,1.37176798317468
school,XINMIN SECONDARY SCHOOL,103.88305161385,1.37255884700002
school,XISHAN PRIMARY SCHOOL,103.837755319448,1.43347186925064
school,YANGZHENG PRIMARY SCHOOL,103.868467129954,1.3489768083841
school,YEW TEE PRIMARY SCHOOL,103.751817992962,1.39672603497195
school,YIO CHU KANG PRIMARY SCHOOL,103.885643682171,1.37793264345276
school,YIO CHU KANG SECONDARY SCHOOL,103.84213696352,1.37797597740925
school,YISHUN INNOVA JUNIOR COLLEGE,103.83003171149,1.42426692572335
school,YISHUN PRIMARY SCHOOL,103.834050796658,1.43397617334964
school,YISHUN SECONDARY SCHOOL,103.828764316679,1.42813324276086
school,YISHUN TOWN SECONDARY SCHOOL,103.838094226361,1.43232156717386
school,YU NENG PRIMARY SCHOOL,103.932015036296,1.33398037894072
school,YUAN CHING SECONDARY SCHOOL,103.72089870437,1.34200635764467
school,YUHUA PRIMARY SCHOOL,103.740861148879,1.34291981622016
school,YUHUA SECONDARY SCHOOL,103.722687235839,1.34718626876968
school,YUMIN PRIMARY SCHOOL,103.950551091373,1.35131569890862
school,YUSOF ISHAK SECONDARY SCHOOL,103.760159353985,1.34235172835604
school,YUYING SECONDARY SCHOOL,103.890194755287,1.35713595302467
school,ZHANGDE PRIMARY SCHOOL,103.825951884637,1.28421153855474
school,ZHENGHUA PRIMARY SCHOOL,103.76970317201,1.37942873617052
school,ZHENGHUA SECONDARY SCHOOL,103.760410617887,1.38512867383046
school,ZHONGHUA PRIMARY SCHOOL,103.869712517383,1.36026072476019
school,ZHONGHUA SECONDARY SCHOOL,103.869430481414,1.34840720846208
park,LABRADOR NATURE RESERVE,103.802,1.267
park,BUKIT TIMAH NATURE RESERVE,103.779,1.354
park,UPPER SELETAR RESERVOIR PARK,103.807,1.401
park,UPPER PEIRCE RESERVOIR PARK,103.812,1.373
park,THOMSON NATURE PARK,103.822,1.383
park,WINDSOR NATURE PARK,103.821,1.357
park,CHESTNUT NATURE PARK,103.779,1.377
park,RIFLE RANGE NATURE PARK,103.784,1.347
park,LOWER PEIRCE RESERVOIR PARK,103.826,1.369
park,ZHENGHUA NATURE PARK,103.778,1.368
park,BUKIT BATOK TOWN PARK,103.756,1.357
park,BUKIT BATOK NATURE PARK,103.765,1.35
park,LABRADOR NATURE PARK,103.803,1.264
park,SPRINGLEAF NATURE PARK,103.82,1.402
park,CENTRAL CATCHMENT NATURE RESERVE,103.806,1.381
park,PULAU SEKUDU,103.988,1.404
park,PULAU UNUM,104.054,1.433
park,BETING BRONOK,104.047,1.437
park,DAIRY FARM NATURE PARK,103.774,1.363
park,SUNGEI BULOH WETLAND RESERVE,103.725,1.445
park,KRANJI COASTAL NATURE PARK,103.735,1.443
park,KRANJI RESERVOIR PARK B,103.738,1.44
park,KRANJI MARSHES,103.73,1.419
park,SUNGEI BULOH SOUTHERN EXTENSION,103.72,1.436
park,KRANJI RESERVOIR PARK A,103.743,1.438
park,BERLAYER CREEK,103.805,1.268
park,PULAU UBIN AND CHEK JAWA,103.965,1.414
park,RAILWAY CORRIDOR RIFLE RANGE CONNECTOR,103.779,1.341
park,HINDHEDE NATURE PARK,103.776,1.35
park,RAIL CORRIDOR,103.754,1.403
park,BUKIT CHERMIN BOARDWALK,103.807,1.265
park,MACRITCHIE RESERVOIR PK,103.836,1.343
park,KALLANG LINEAR PARK,103.856,1.35
park,OLD UPPER ALJUNIED ROAD,103.875,1.339
park,ARMENIAN STREET (FCP),103.85,1.294
park,CONNAUGHT DRIVE,103.853,1.29
park,CANNING RISE (FCP),103.848,1.296
park,CAMP ROAD INTERIM PARK,103.818,1.302
park,CHANGI WEST BOARDWALK (CHANGI BC),103.976,1.39
park,CHANGI PT FERRY TERMINAL,103.987,1.391
park,TANAH MERAH PG,103.947,1.329
park,MARIAM WALK PG,103.969,1.36
park,LOYANG VIEW PG,103.966,1.363
park,JLN LIMAU MANIS PG,103.949,1.325
park,JLN ANGIN LAUT PG,103.956,1.337
park,MERA TERRACE PG,103.964,1.347
park,EASTWOOD PK PG,103.958,1.323
park,JLN CHEMPAKA KUNING PG,103.95,1.33
park,JLN PARI BURONG PG,103.947,1.334
park,JLN PARI DEDAP PG,103.944,1.333
park,JLN PELATOK PG,103.96,1.346
park,MERAGI RD PG,103.96,1.344
park,SUNBIRD CIRCLE PG,103.958,1.339
park,PESARI WALK PG,103.954,1.324
park,BEDOK RIA CRESCENT PG,103.953,1.327
park,HARVEY CRESCENT PG,103.955,1.341
park,MARIAM WAY PG,103.966,1.362
park,BEDOK TERRACE PG,103.948,1.326
park,KEW DR PG,103.952,1.321
park,LIMAU GARDEN PG,103.951,1.322
park,LUCKY GARDENS PG,103.941,1.319
park,SENNETT AVE PG,103.936,1.317
park,JLN LIMAU KASTURI PG,103.946,1.324
park,KEW AVE PG,103.948,1.322
park,KEW CRESCENT PG,103.949,1.319
park,LIMAU VILLAS PG,103.951,1.324
park,CHANGI HEIGHTS PG,103.972,1.363
park,TURNHOUSE PK,103.979,1.39
park,SENNETT AVE OS,103.939,1.319
park,JLN LIMAU KASTURI OS,103.946,1.324
park,JLN PELATOK OS,103.961,1.346
park,CHANGI EAST BOARDWALK (CHANGI FERRY TER),103.984,1.392
park,CHANGI POINT PROMENADE,103.989,1.39
park,CHANGI POINT WATERFRONT PK,103.988,1.39
park,EAST COAST PARK AREA A,103.87,1.294
park,EAST COAST PARK AREA B,103.9,1.296
park,EAST COAST PARK AREA C,103.912,1.3
park,EAST COAST PARK AREA D,103.925,1.304
park,EAST COAST PARK AREA E,103.933,1.307
park,EAST COAST PARK AREA F,103.94,1.309
park,EAST COAST PARK AREA G,103.958,1.314
park,EAST COAST PARK AREA H,103.967,1.316
park,BEDOK TOWN PK,103.924,1.335
park,BEDOK RESERVOIR PK,103.927,1.346
park,YARROW PARK,103.922,1.315
park,SIGLAP LINEAR PK (UPP EC RD-M PARADE),103.928,1.311
park,TANJONG KATONG RD SOUTH PG,103.897,1.3
park,JLN BULOH PERINDU PG,103.919,1.308
park,MEYER RD PG,103.894,1.299
park,EAST COAST TERRACE PK,103.924,1.311
park,TELOK KURAU PK,103.914,1.315
park,ELITE TERRACE PK,103.924,1.316
park,SIGLAP LINEAR PK (JLN B'WAN-UPP EC RD),103.927,1.314
park,GEYLANG EAST PK,103.888,1.322
park,GREENFIELD DR PG,103.918,1.313
park,BANGSAWAN PK,103.924,1.321
park,AIDA PK,103.928,1.319
park,JLN SENANG PG,103.916,1.329
park,OPERA ESTATE FOOTBALL FIELD,103.924,1.32
park,CARPMAEL PARK,103.899,1.312
park,TAMAN KEMBANGAN PG,103.914,1.325
park,WARINGIN PK PG,103.919,1.323
park,ARTHUR PK,103.888,1.304
park,LORONG 40 GEYLANG PG,103.889,1.314
park,GUILLEMARD RD OS,103.892,1.315
park,INTERIM PK AT TERANG BULAN AVE,103.922,1.322
park,MT BATTEN RD/OLD AIRPORT RD OS,103.883,1.306
park,KATONG PK,103.886,1.297
park,MARINE PARADE RD PK,103.908,1.305
park,WILKINSON INTERIM PK,103.887,1.302
park,HAIG WALK (GEYLANG RD-DUNMAN RD),103.901,1.307
park,JOO CHIAT TERRACE PK,103.902,1.314
park,LORONG SARINA INTERIM PK,103.906,1.32
park,JLN ISMAIL PK,103.906,1.323
park,PASIR RIS PK,103.952,1.379
park,PASIR RIS TOWN PK,103.952,1.372
park,SUN PLAZA PK,103.943,1.359
park,SG API API PK,103.946,1.379
park,ELIAS TERRACE PG,103.941,1.372
park,HORTPARK,103.798,1.279
park,PASIR PANJANG NURSERY,103.794,1.282
park,NATIVE PLANT CENTRE,103.727,1.417
park,PEK KIO PARK,103.849,1.316
park,ANG MO KIO TOWN GARDEN EAST,103.85,1.371
park,ANG MO KIO TOWN GARDEN WEST,103.843,1.375
park,BISHAN-ANG MO KIO PARK (POND GARDENS),103.836,1.365
park,BISHAN-ANG MO KIO PARK (RIVER PLAINS),103.849,1.361
park,CHUAN GREEN PG,103.866,1.36
park,ST. NICHOLAS VIEW PLAYGROUND,103.833,1.372
park,ELLINGTON SQUARE PLAYGROUND,103.835,1.372
park,GELENGGANG PARK,103.83,1.373
park,LEBAN PARK,103.829,1.372
park,MAYFLOWER CRESCENT PG,103.84,1.373
park,SERENADE WALK PG,103.835,1.38
park,SHANGRI-LA PLAYGROUND,103.832,1.371
park,SUNRISE CLOSE PG,103.858,1.387
park,SUNRISE DR PG I,103.857,1.388
park,SUNRISE PLACE PG,103.857,1.387
park,SUNRISE WAY PG,103.857,1.388
park,TEACHER`S ESTATE PG,103.829,1.382
park,THOMSON GREEN PG,103.833,1.379
park,THOMSON WALK PG,103.832,1.376
park,YIO CHU KANG GARDENS PG,103.837,1.381
park,SUNRISE TERRACE OS,103.856,1.388
park,CACTUS RD PG,103.852,1.39
park,SUNRISE DR PG II,103.855,1.39
park,CHARTWELL DR PK,103.864,1.36
park,GARDEN VIEW PG,103.866,1.36
park,JLN RIANG PG,103.867,1.347
park,MEI HWAN CRESCENT PG,103.862,1.353
park,MEI HWAN DR PG,103.863,1.353
park,TAI HWAN TERRACE PG,103.86,1.356
park,TAVISTOCK AVE PK,103.865,1.37
park,CHUAN WALK PG,103.868,1.357
park,COLCHESTER GROVE OS,103.867,1.358
park,BINCHANG RISE PG,103.844,1.349
park,THOMSON PK,103.834,1.354
park,CLOVER WAY PG,103.846,1.35
park,FULTON AVE PG,103.834,1.362
park,ISLAND GDNS WALK PG,103.828,1.362
park,JLN PINTAU PG,103.84,1.354
park,JUPITER PLAYGROUND,103.825,1.358
park,PEMIMPIN PLACE PG,103.843,1.353
park,SOO CHOW WALK PG,103.832,1.354
park,CLOVER CRESCENT PG,103.845,1.351
park,THE INGLEWOOD PG,103.83,1.361
park,CARMICHAEL RD PG,103.863,1.343
park,TAMAN PERMATA PK,103.835,1.35
park,CHUAN LANE PARK,103.858,1.352
park,PUNGGOL PK,103.899,1.377
park,CONEY ISLAND PARK,103.922,1.409
park,ALJUNIED PK,103.88,1.329
park,SURIN AVE NEIGHBOURHOOD PK,103.884,1.356
park,TAI KENG GARDENS PG,103.885,1.346
park,PAYA LEBAR CRESCENT OS,103.884,1.349
park,THRIFT DR OS,103.883,1.344
park,AROOZOO AVE PG,103.886,1.355
park,TAI KENG PLACE PG,103.885,1.345
park,JLN KELICHAP PG,103.882,1.347
park,JLN SELASEH PG,103.873,1.386
park,LILAC DR PG,103.861,1.381
park,MIMOSA RD PG,103.863,1.384
park,MIMOSA WALK PG,103.861,1.383
park,MUGLISTON PK PG,103.878,1.385
park,NERAM CRESCENT PG,103.866,1.386
park,TAMARIND RD PG,103.86,1.39
park,NIM CRESCENT OS,103.867,1.383
park,BEGONIA RD PG,103.863,1.388
park,JLN NAUNG PG,103.893,1.37
park,PARRY RD PG,103.878,1.366
park,SARACA RD PG,103.859,1.387
park,DEDAP PLACE PG,103.868,1.388
park,POH HUAT RD PG,103.882,1.367
park,STRATTON WALK PG,103.867,1.379
park,SELETAR TERRACE PG,103.869,1.381
park,ST ANNE'S WOOD PG,103.904,1.392
park,PK VILLAS TERRACE PG,103.88,1.369
park,MIMOSA TERRACE PG,103.86,1.384
park,DEW GARDEN,103.871,1.399
park,PARRY AVE INTERIM PK,103.881,1.364
park,RICHARDS AVE PK,103.882,1.361
park,BUTTERFLY AVE PG,103.877,1.334
park,CHEMPAKA AVE PG,103.876,1.332
park,JLN GENENG INTERIM PK,103.881,1.353
park,SENGKANG RIVERSIDE PK,103.884,1.399
park,OASIS@MULBERRY PK,103.878,1.333
park,SIANG KUANG AVE INTERIM PK,103.873,1.33
park,LORONG TANGGAM PK,103.874,1.399
park,UPPER PAYA LEBAR INTERIM PARK,103.882,1.344
park,NIM MEADOW PARK,103.863,1.379
park,GREENWAY SOUTH,103.872,1.335
park,FERNVALE PARK,103.875,1.398
park,SEMBAWANG PK,103.837,1.462
park,YISHUN PK,103.843,1.424
park,LOWER SELETAR RESERVOIR PARK,103.829,1.407
park,LENTOR WALK PG,103.838,1.389
park,COUNTRYSIDE PG,103.838,1.39
park,LENTOR STREET PG,103.834,1.39
park,FLORISSA PK PG,103.835,1.387
park,FUDU WALK PG,103.837,1.39
park,LENTOR GREEN PG,103.837,1.385
park,LENTOR GROVE PG,103.838,1.386
park,LENTOR RD PG,103.838,1.388
park,LENTOR VALE PG,103.836,1.388
park,BANYAN VILLAS PG,103.839,1.387
park,YISHUN NEIGHBOURHOOD PK,103.835,1.438
park,PLATINA RD PG,103.826,1.428
park,GOODLINK PK PG,103.825,1.427
park,SPRINGLEAF GARDEN PG,103.822,1.398
park,THONG SOON GREEN PG,103.818,1.4
park,SPRINGLEAF AVE PG,103.823,1.401
park,KANDIS GARDEN,103.836,1.456
park,JANGGUS GARDEN,103.837,1.458
park,PEBBLE GARDEN,103.829,1.451
park,SPRINGSIDE PK,103.821,1.406
park,YISHUN POND PK,103.839,1.428
park,MARSILING PARK,103.77,1.438
park,CHOA CHU KANG PK,103.747,1.387
park,WOODLANDS TOWN PK EAST,103.779,1.437
park,CASHEW RD PG,103.765,1.371
park,CHESTNUT DR PG,103.769,1.368
park,CASHEW LINK PG,103.769,1.371
park,JLN RASOK PK,103.759,1.417
park,ALMOND CRESCENT PG,103.772,1.373
park,HAZEL PK OS,103.764,1.372
park,VILLA VERDE PK,103.753,1.39
park,ADMIRALTY PK,103.78,1.45
park,CASHEW CRESCENT FC PG,103.769,1.372
park,MARKET STREET PARK,103.85,1.283
park,HAMPSTEAD WETLANDS PARK,103.869,1.409
park,YOUTH OLYMPIC PK,103.861,1.289
park,MACPHERSON LINEAR PK,103.882,1.334
park,CORONATION PARK,103.796,1.322
park,HOLLAND VILLAGE PK,103.796,1.312
park,BUNGA RAMPAI PK,103.884,1.34
park,JALAN SEMBILANG PARK,103.834,1.357
park,BIDADARI PK,103.874,1.341
park,ST MICHAEL'S PG,103.865,1.326
park,ST MICHAEL'S FC,103.865,1.326
park,CAMBRIDGE PARK,103.847,1.314
park,KHEAM HOCK PARK,103.819,1.33
park,CEYLON ROAD INTERIM PARK,103.9,1.31
park,HAIG WALK EXTENSION,103.899,1.311
park,ONAN ROAD GREEN SPACE,103.901,1.31
park,TRAS LINK PK,103.844,1.276
park,VENUS GREEN,103.827,1.359
park,GREEN LANE PARK,103.892,1.311
park,MAR THOMA ROAD PARK,103.862,1.327
park,SIAN TUAN INTERIM PARK,103.786,1.339
park,LORONG ONG LYE PARK,103.879,1.348
park,KOON SENG PARK,103.903,1.311
park,HOW SUN LINEAR PARK,103.878,1.346
park,TAMPINES ECO GREEN PK,103.948,1.364
park,LENGKONG ENAM PARK,103.915,1.327
park,JALAN SENANG LINEAR PARK,103.917,1.326
park,TANAH PUTEH PK,103.931,1.316
park,TELOK KURAU LORONG N PK,103.913,1.31
park,JLN DAUD PK,103.907,1.326
park,JLN DAUD INTERIM PK,103.907,1.326
park,JLN EUNOS INTERIM PK,103.906,1.325
park,JLN AWANG INTERIM PK,103.906,1.324
park,JLN YASIN INTERIM PK,103.906,1.321
park,SENNETT AVE LINEAR PK,103.936,1.318
park,JALAN ISHAK PARK,103.907,1.324
park,LORONG MARICAN PARK,103.908,1.324
park,LORONG MARZUKI PARK,103.908,1.324
park,LORONG MELAYU PARK,103.909,1.324
park,JALAN SINGA PARK,103.907,1.331
park,SEA BREEZE AVENUE PARK,103.952,1.339
park,SEA BREEZE GARDEN PARK,103.95,1.338
park,JLN KAYU PK,103.873,1.398
park,PUNGGOL WATERWAY PK,103.905,1.411
park,CHILTERN DRIVE INTERIM PARK,103.862,1.349
park,LUXUS HILLS PARK,103.875,1.379
park,COLCHESTER GROVE INTERIM OS,103.867,1.356
park,ANG MO KIO LINEAR PK (PLOT 2),103.872,1.379
park,ANG MO KIO LINEAR PK (PLOT 3),103.869,1.379
park,JLN KAYU INTERIM PK,103.873,1.399
park,REALTY PARK,103.89,1.368
park,PAYA LEBAR ROAD PARK,103.889,1.333
park,WOODLANDS WATERFRONT PK,103.781,1.453
park,KEMUNING PK,103.827,1.439
park,LEGUNDI PK,103.822,1.441
park,BROOK'S PARK,103.823,1.406
park,HAUS LINEAR PARK,103.86,1.364
park,SEMBAWANG HOT SPRING PARK,103.823,1.434
park,IRAU DRIVE PLAYGROUND,103.84,1.462
park,UPPER SERANGOON PARK,103.875,1.352
park,LORONG KEMUNCHUP PLAYGROUND,103.761,1.36
park,JALAN REMAJA INTERIM PARK,103.761,1.358
park,FUYONG INTERIM PK,103.769,1.357
park,CHESTNUT CLOSE PARK,103.773,1.369
park,PAVILION PLAYGROUND II,103.753,1.368
park,CASHEW RD INTERIM PK,103.768,1.372
park,FABER HEIGHTS PARK,103.755,1.324
park,JLG: CG MRT TOL LINKWAY,103.732,1.341
park,SBG LC ZONE 1 (TNC),103.816,1.31
park,SBG LC ZONE 2 (CC/BTC),103.817,1.321
park,SBG LC ZONE 3 (NOG/PV),103.814,1.313
park,SBG LC ARBO/PRC/PRU ,103.818,1.322
park,FORT CANNING PARK,103.847,1.296
park,THE FOOTHILLS FORT CANNING PK,103.846,1.292
park,FARQUHAR GARDEN (FCP),103.849,1.296
park,EMPRESS PLACE,103.852,1.287
park,ESPLANADE PK,103.854,1.289
park,DUXTON PLAIN PK,103.841,1.281
park,PEARL'S HILL CITY PK,103.839,1.285
park,RAFFLES PLACE PK,103.851,1.284
park,TELOK AYER PK,103.847,1.278
park,WATERBOAT HOUSE GARDEN,103.853,1.287
park,TANJONG PAGAR PK,103.846,1.277
park,TELOK AYER GREEN,103.848,1.281
park,ANN SIANG HILL PK,103.846,1.281
park,HONG LIM PK,103.847,1.286
park,TOA PAYOH TOWN PK,103.848,1.331
park,KALLANG RIVERSIDE PK,103.869,1.308
park,TIONG BAHRU PK,103.824,1.288
park,THOMSON RD PG,103.844,1.316
park,MALCOLM PK,103.827,1.323
park,KAMPONG GLAM PK,103.863,1.302
park,HOOPER RD PG,103.843,1.312
park,ROWELL RD OS,103.855,1.308
park,SOMME RD PG,103.858,1.311
park,BENG WAN RD PG,103.866,1.324
park,NORTH BRIDGE GARDEN,103.862,1.304
park,GOLDHILL AVE PG,103.833,1.321
park,GENTLE DR PG,103.841,1.32
park,NOVENA PK,103.843,1.322
park,MOUNT EMILY PK,103.848,1.304
park,PENANG RD OS,103.841,1.3
park,JUBILEE PARK (FCP),103.845,1.293
park,ORCHARD FOUNTAIN CORNER,103.838,1.302
park,ISTANA PK,103.844,1.299
park,WAR MEMORIAL PK,103.855,1.293
park,KIM SENG PK,103.834,1.293
park,NOVENA RISE PK,103.843,1.325
park,DHOBY GHAUT GREEN,103.846,1.298
park,HANDY RD OS,103.848,1.299
park,BOUGAINVILLEA PK,103.808,1.327
park,UNIVERSITY RD PK,103.818,1.325
park,GREENWOOD CRESCENT PG,103.805,1.336
park,ORCHID VILLAGE PG,103.802,1.336
park,SHELFORD RD PG,103.81,1.328
park,WATTEN HEIGHTS PG,103.808,1.332
park,NAMLY PK,103.797,1.323
park,SIXTH AVE PG,103.791,1.322
park,KING'S DR PG,103.806,1.319
park,SUNSET WAY PK,103.765,1.328
park,SUNSET WAY PG,103.766,1.327
park,SUNSET HEIGHTS OS,103.769,1.328
park,CLEMENTI CRESCENT PG,103.773,1.324
park,HUA GUAN CRESCENT PG,103.785,1.337
park,GREENLEAF VIEW PK PG,103.788,1.322
park,GROVE LANE PG,103.784,1.314
park,JLN KEBAYA PG,103.78,1.314
park,MOUNT SINAI PLAIN PG,103.781,1.316
park,HOLLAND GROVE VIEW FC,103.783,1.312
park,HOLLAND GROVE VIEW PG,103.781,1.313
park,HOLLAND GREEN PG,103.783,1.327
park,MAYFAIR PK,103.781,1.342
park,HENRY PK,103.783,1.316
park,PHOENIX PARK,103.757,1.376
park,CHENG SOON GARDEN PG,103.772,1.336
park,CHU YEN PLAYGROUND,103.759,1.359
park,ENG KONG GARDEN PG,103.769,1.337
park,ENG KONG PLACE FC,103.767,1.335
park,GOLDEN RISE PG,103.765,1.336
park,GREENRIDGE CRESCENT PG,103.766,1.334
park,JALAN DERMAWAN PLAYGROUND,103.759,1.361
park,JALAN TEKUKOR PLAYGROUND,103.767,1.346
park,HOOVER PARK (LOR PISANG HIJAU PLAYGROUND),103.773,1.344
park,HIGHGATE WALK PLAYGROUND,103.766,1.34
park,SAVOY PK PG,103.77,1.333
park,HILLVIEW CRESCENT PLAYGROUND,103.761,1.355
park,BURGUNDY CRESCENT PLAYGROUND,103.761,1.34
park,PAVILION PARK PLAYGROUND,103.752,1.372
park,DUCHESS PK,103.805,1.324
park,VICTORIA PARK PLAYGROUND,103.802,1.322
park,MAPLE LANE PARK,103.793,1.33
park,HOLLAND GREEN LINEAR PARK,103.784,1.327
park,WEST COAST PARK,103.763,1.297
park,CLEMENTI WOODS PARK,103.768,1.299
park,YUNNAN PARK,103.693,1.337
park,LAKESIDE GROVE PLAYGROUND,103.719,1.34
park,WESTWOOD PARK PLAYGROUND,103.701,1.352
park,WESTVILLE PLAYGROUND,103.7,1.354
park,LAKESIDE GROVE FITNESS CORNER,103.717,1.34
park,JALAN MAS KUNING PLAYGROUND,103.764,1.308
park,JALAN MAS PUTEH PLAYGROUND,103.762,1.309
park,PANDAN RESERVOIR FITNESS CORNER,103.749,1.317
park,TAMAN MAS MERAH PLAYGROUND,103.765,1.309
park,WEST COAST GREEN PLAYGROUND,103.756,1.316
park,WEST COAST PLACE PLAYGROUND,103.758,1.314
park,FABER HILLS PLAYGROUND,103.758,1.32
park,FABER HEIGHTS OPEN SPACE,103.758,1.323
park,JURONG CENTRAL PARK,103.708,1.338
park,PASIR PANJANG PARK,103.784,1.279
park,KENT RIDGE PARK,103.79,1.284
park,JAMBOL PLACE PARK,103.79,1.279
park,CHWEE CHIAN PLAYGROUND,103.789,1.28
park,ONE-NORTH PARK,103.79,1.304
park,MOUNT FABER PARK,103.819,1.271
park,TELOK BLANGAH HILL PARK,103.81,1.279
park,GANGES AVE OS,103.832,1.291
park,KIM PONG PARK,103.83,1.284
park,BUKIT GOMBAK PARK,103.752,1.367
park,TAMPINES BOULEVARD PARK,103.941,1.364
park,BOUNDARY ROAD PARK,103.875,1.354
park,PARK AT SEMBAWANG ALLEY,103.819,1.449
park,JLN SENDUDOK PARK,103.827,1.444
park,TOH CLOSE INTERIM PARK,103.97,1.364
park,EAST COAST PARK AREA E1 CAR PARK,103.93,1.307
park,PARLIAMENT PROMENADE,103.85,1.289
park,CHANGI BEACH PK,104.002,1.383
park,NW502D,103.83,1.443
park,JLG: LAKESIDE GARDEN,103.727,1.334
park,CITY GREEN,103.856,1.312
park,SILAT AVENUE PARK,103.83,1.276
park,WOODLANDS HEALING GARDEN,103.793,1.425
park,MENG SUAN INTERIM PARK,103.815,1.403
park,MARKET STREET PARK,103.85,1.283
